LATITUDE,LONGITUDE,nome,id
-33.47799751599996,-67.55455391199996,La Paz,B3280
-33.34273968399998,-67.91174478799996,La Dormida Pueblo,B3285
-33.328563121999935,-67.95461224199994,La Dormida,B3390
-37.657281110999975,-67.75211729499995,Corcobo,C1050
-37.345718605999934,-67.61610972099999,Puelen,C1100
-36.40568017499993,-67.14210351599996,Algarrobo del Aguila,C1200
-36.22960073499996,-66.94872345299996,Santa Isabel,C1300
-33.49190897999995,-64.31704055999995,San Basilio,C2720
-33.513275153999984,-64.67011323499997,Bulnes,C2730q